[
  {
    "id": "place_001",
    "name": "The Vegetarian Kitchen",
    "cuisine": "Asian Fusion",
    "dietary": ["vegetarian", "vegan"],
    "price": 2,
    "rating": 4.3,
    "reviewCount": 812,
    "distance": 0.4,
    "busyness": 65,
    "openNow": true,
    "ambience": ["casual", "quiet"],
    "address": "12 Orchard Link, Singapore",
    "lat": 1.3041,
    "lng": 103.8318,
    "photo": "https://picsum.photos/seed/place001/400/300",
    "tags": ["healthy", "light", "solo-friendly"],
    "avgMealDuration": 30
  },
  {
    "id": "place_002",
    "name": "Sakura Ramen Bar",
    "cuisine": "Japanese",
    "dietary": [],
    "price": 2,
    "rating": 4.5,
    "reviewCount": 1203,
    "distance": 0.7,
    "busyness": 80,
    "openNow": true,
    "ambience": ["casual"],
    "address": "45 Tanjong Pagar Rd, Singapore",
    "lat": 1.2765,
    "lng": 103.8445,
    "photo": "https://picsum.photos/seed/place002/400/300",
    "tags": ["comfort", "solo-friendly"],
    "avgMealDuration": 45
  },
  {
    "id": "place_003",
    "name": "Terra Verde Mediterranean",
    "cuisine": "Mediterranean",
    "dietary": ["vegetarian", "gluten-free"],
    "price": 3,
    "rating": 4.7,
    "reviewCount": 634,
    "distance": 1.1,
    "busyness": 40,
    "openNow": true,
    "ambience": ["romantic", "quiet"],
    "address": "22 Robertson Quay, Singapore",
    "lat": 1.2903,
    "lng": 103.8369,
    "photo": "https://picsum.photos/seed/place003/400/300",
    "tags": ["healthy", "light", "group-friendly"],
    "avgMealDuration": 75
  },
  {
    "id": "place_004",
    "name": "Spice Garden Indian",
    "cuisine": "Indian",
    "dietary": ["vegetarian", "halal"],
    "price": 2,
    "rating": 4.4,
    "reviewCount": 987,
    "distance": 0.9,
    "busyness": 70,
    "openNow": true,
    "ambience": ["casual", "family"],
    "address": "8 Little India Arcade, Singapore",
    "lat": 1.3066,
    "lng": 103.8520,
    "photo": "https://picsum.photos/seed/place004/400/300",
    "tags": ["comfort", "group-friendly"],
    "avgMealDuration": 50
  },
  {
    "id": "place_005",
    "name": "Hawker Hub",
    "cuisine": "Singaporean",
    "dietary": ["halal"],
    "price": 1,
    "rating": 4.1,
    "reviewCount": 2341,
    "distance": 0.3,
    "busyness": 90,
    "openNow": true,
    "ambience": ["casual"],
    "address": "Newton Food Centre, Singapore",
    "lat": 1.3123,
    "lng": 103.8387,
    "photo": "https://picsum.photos/seed/place005/400/300",
    "tags": ["light", "solo-friendly"],
    "avgMealDuration": 20
  },
  {
    "id": "place_006",
    "name": "Green Bowl Co",
    "cuisine": "Salad & Bowls",
    "dietary": ["vegetarian", "vegan", "gluten-free"],
    "price": 2,
    "rating": 4.2,
    "reviewCount": 445,
    "distance": 0.5,
    "busyness": 55,
    "openNow": true,
    "ambience": ["casual", "quiet"],
    "address": "3 Telok Ayer St, Singapore",
    "lat": 1.2808,
    "lng": 103.8474,
    "photo": "https://picsum.photos/seed/place006/400/300",
    "tags": ["healthy", "light", "solo-friendly"],
    "avgMealDuration": 25
  },
  {
    "id": "place_007",
    "name": "Ember Steakhouse",
    "cuisine": "Western",
    "dietary": [],
    "price": 4,
    "rating": 4.8,
    "reviewCount": 521,
    "distance": 1.8,
    "busyness": 35,
    "openNow": false,
    "ambience": ["romantic", "quiet"],
    "address": "5 Magazine Rd, Singapore",
    "lat": 1.2841,
    "lng": 103.8448,
    "photo": "https://picsum.photos/seed/place007/400/300",
    "tags": ["comfort", "group-friendly"],
    "avgMealDuration": 90
  },
  {
    "id": "place_008",
    "name": "Naan & More",
    "cuisine": "Indian",
    "dietary": ["vegetarian", "halal"],
    "price": 1,
    "rating": 4.0,
    "reviewCount": 678,
    "distance": 0.6,
    "busyness": 60,
    "openNow": true,
    "ambience": ["casual"],
    "address": "47 Race Course Rd, Singapore",
    "lat": 1.3102,
    "lng": 103.8534,
    "photo": "https://picsum.photos/seed/place008/400/300",
    "tags": ["light", "solo-friendly"],
    "avgMealDuration": 25
  },
  {
    "id": "place_009",
    "name": "Pho Saigon",
    "cuisine": "Vietnamese",
    "dietary": ["gluten-free"],
    "price": 1,
    "rating": 4.3,
    "reviewCount": 891,
    "distance": 0.8,
    "busyness": 75,
    "openNow": true,
    "ambience": ["casual"],
    "address": "29 Lor 8 Geylang, Singapore",
    "lat": 1.3148,
    "lng": 103.8763,
    "photo": "https://picsum.photos/seed/place009/400/300",
    "tags": ["light", "solo-friendly"],
    "avgMealDuration": 30
  },
  {
    "id": "place_010",
    "name": "The Grain Workshop",
    "cuisine": "Café & Bistro",
    "dietary": ["vegetarian", "vegan"],
    "price": 2,
    "rating": 4.4,
    "reviewCount": 367,
    "distance": 1.2,
    "busyness": 45,
    "openNow": true,
    "ambience": ["quiet", "casual"],
    "address": "115 Amoy St, Singapore",
    "lat": 1.2802,
    "lng": 103.8465,
    "photo": "https://picsum.photos/seed/place010/400/300",
    "tags": ["healthy", "light", "solo-friendly"],
    "avgMealDuration": 35
  },
  {
    "id": "place_011",
    "name": "Chopstick Palace",
    "cuisine": "Chinese",
    "dietary": ["halal"],
    "price": 2,
    "rating": 4.1,
    "reviewCount": 1102,
    "distance": 0.5,
    "busyness": 65,
    "openNow": true,
    "ambience": ["casual", "family"],
    "address": "3 Smith St, Chinatown, Singapore",
    "lat": 1.2830,
    "lng": 103.8443,
    "photo": "https://picsum.photos/seed/place011/400/300",
    "tags": ["comfort", "group-friendly"],
    "avgMealDuration": 50
  },
  {
    "id": "place_012",
    "name": "Kimchi & Co",
    "cuisine": "Korean",
    "dietary": [],
    "price": 3,
    "rating": 4.5,
    "reviewCount": 743,
    "distance": 1.4,
    "busyness": 70,
    "openNow": true,
    "ambience": ["casual"],
    "address": "78 Tanjong Pagar Plaza, Singapore",
    "lat": 1.2760,
    "lng": 103.8441,
    "photo": "https://picsum.photos/seed/place012/400/300",
    "tags": ["comfort", "group-friendly"],
    "avgMealDuration": 55
  },
  {
    "id": "place_013",
    "name": "Al Madina Grill",
    "cuisine": "Middle Eastern",
    "dietary": ["halal"],
    "price": 2,
    "rating": 4.3,
    "reviewCount": 556,
    "distance": 1.0,
    "busyness": 50,
    "openNow": true,
    "ambience": ["casual", "family"],
    "address": "61 Arab St, Singapore",
    "lat": 1.3029,
    "lng": 103.8593,
    "photo": "https://picsum.photos/seed/place013/400/300",
    "tags": ["comfort", "group-friendly"],
    "avgMealDuration": 60
  },
  {
    "id": "place_014",
    "name": "Sushi Omakase Studio",
    "cuisine": "Japanese",
    "dietary": ["gluten-free"],
    "price": 4,
    "rating": 4.9,
    "reviewCount": 189,
    "distance": 2.1,
    "busyness": 20,
    "openNow": true,
    "ambience": ["romantic", "quiet"],
    "address": "10 Bukit Pasoh Rd, Singapore",
    "lat": 1.2793,
    "lng": 103.8413,
    "photo": "https://picsum.photos/seed/place014/400/300",
    "tags": ["group-friendly", "comfort"],
    "avgMealDuration": 90
  },
  {
    "id": "place_015",
    "name": "Vegan Nest",
    "cuisine": "Western",
    "dietary": ["vegan", "gluten-free"],
    "price": 2,
    "rating": 4.2,
    "reviewCount": 312,
    "distance": 0.9,
    "busyness": 40,
    "openNow": true,
    "ambience": ["quiet", "casual"],
    "address": "18 Keong Saik Rd, Singapore",
    "lat": 1.2801,
    "lng": 103.8421,
    "photo": "https://picsum.photos/seed/place015/400/300",
    "tags": ["healthy", "light", "solo-friendly"],
    "avgMealDuration": 35
  },
  {
    "id": "place_016",
    "name": "Mama's Wok",
    "cuisine": "Chinese",
    "dietary": [],
    "price": 1,
    "rating": 4.0,
    "reviewCount": 1876,
    "distance": 0.4,
    "busyness": 85,
    "openNow": true,
    "ambience": ["casual", "family"],
    "address": "112 Serangoon Rd, Singapore",
    "lat": 1.3088,
    "lng": 103.8555,
    "photo": "https://picsum.photos/seed/place016/400/300",
    "tags": ["comfort", "group-friendly"],
    "avgMealDuration": 40
  },
  {
    "id": "place_017",
    "name": "Botanica Bistro",
    "cuisine": "Western",
    "dietary": ["vegetarian", "gluten-free"],
    "price": 3,
    "rating": 4.6,
    "reviewCount": 498,
    "distance": 1.3,
    "busyness": 35,
    "openNow": true,
    "ambience": ["romantic", "quiet"],
    "address": "7 Ann Siang Hill, Singapore",
    "lat": 1.2812,
    "lng": 103.8454,
    "photo": "https://picsum.photos/seed/place017/400/300",
    "tags": ["healthy", "light", "group-friendly"],
    "avgMealDuration": 70
  },
  {
    "id": "place_018",
    "name": "Zam Zam Restaurant",
    "cuisine": "Malay",
    "dietary": ["halal"],
    "price": 1,
    "rating": 4.2,
    "reviewCount": 2103,
    "distance": 0.6,
    "busyness": 78,
    "openNow": true,
    "ambience": ["casual"],
    "address": "699 North Bridge Rd, Singapore",
    "lat": 1.3028,
    "lng": 103.8588,
    "photo": "https://picsum.photos/seed/place018/400/300",
    "tags": ["comfort", "group-friendly"],
    "avgMealDuration": 30
  },
  {
    "id": "place_019",
    "name": "Gluten-Free Grains",
    "cuisine": "Café & Bistro",
    "dietary": ["gluten-free", "vegan"],
    "price": 2,
    "rating": 4.1,
    "reviewCount": 234,
    "distance": 1.6,
    "busyness": 30,
    "openNow": false,
    "ambience": ["quiet", "casual"],
    "address": "20 Craig Rd, Singapore",
    "lat": 1.2780,
    "lng": 103.8412,
    "photo": "https://picsum.photos/seed/place019/400/300",
    "tags": ["healthy", "light", "solo-friendly"],
    "avgMealDuration": 30
  },
  {
    "id": "place_020",
    "name": "The Tandoor House",
    "cuisine": "Indian",
    "dietary": ["halal", "vegetarian"],
    "price": 2,
    "rating": 4.4,
    "reviewCount": 712,
    "distance": 0.7,
    "busyness": 60,
    "openNow": true,
    "ambience": ["family", "casual"],
    "address": "36 Dickson Rd, Singapore",
    "lat": 1.3047,
    "lng": 103.8528,
    "photo": "https://picsum.photos/seed/place020/400/300",
    "tags": ["comfort", "group-friendly"],
    "avgMealDuration": 55
  },
  {
    "id": "place_021",
    "name": "Café Attitude",
    "cuisine": "Café & Bistro",
    "dietary": ["vegetarian"],
    "price": 2,
    "rating": 4.3,
    "reviewCount": 389,
    "distance": 0.8,
    "busyness": 50,
    "openNow": true,
    "ambience": ["quiet"],
    "address": "55 Haji Lane, Singapore",
    "lat": 1.3024,
    "lng": 103.8593,
    "photo": "https://picsum.photos/seed/place021/400/300",
    "tags": ["light", "solo-friendly"],
    "avgMealDuration": 40
  },
  {
    "id": "place_022",
    "name": "Saffron & Spice",
    "cuisine": "Indian",
    "dietary": ["vegetarian", "gluten-free"],
    "price": 3,
    "rating": 4.6,
    "reviewCount": 445,
    "distance": 1.5,
    "busyness": 40,
    "openNow": true,
    "ambience": ["romantic", "quiet"],
    "address": "14 Mohamed Sultan Rd, Singapore",
    "lat": 1.2914,
    "lng": 103.8382,
    "photo": "https://picsum.photos/seed/place022/400/300",
    "tags": ["healthy", "group-friendly"],
    "avgMealDuration": 65
  },
  {
    "id": "place_023",
    "name": "Burger Joint 65",
    "cuisine": "Western",
    "dietary": ["halal"],
    "price": 2,
    "rating": 4.0,
    "reviewCount": 834,
    "distance": 0.5,
    "busyness": 72,
    "openNow": true,
    "ambience": ["casual"],
    "address": "88 Amoy St, Singapore",
    "lat": 1.2798,
    "lng": 103.8463,
    "photo": "https://picsum.photos/seed/place023/400/300",
    "tags": ["comfort", "solo-friendly"],
    "avgMealDuration": 30
  },
  {
    "id": "place_024",
    "name": "Spring Moon Dim Sum",
    "cuisine": "Chinese",
    "dietary": [],
    "price": 3,
    "rating": 4.5,
    "reviewCount": 967,
    "distance": 1.2,
    "busyness": 60,
    "openNow": true,
    "ambience": ["family"],
    "address": "3 Coleman St, Singapore",
    "lat": 1.2889,
    "lng": 103.8483,
    "photo": "https://picsum.photos/seed/place024/400/300",
    "tags": ["comfort", "group-friendly"],
    "avgMealDuration": 70
  },
  {
    "id": "place_025",
    "name": "Pure Greens",
    "cuisine": "Salad & Bowls",
    "dietary": ["vegan", "gluten-free"],
    "price": 2,
    "rating": 4.3,
    "reviewCount": 278,
    "distance": 0.6,
    "busyness": 45,
    "openNow": true,
    "ambience": ["casual", "quiet"],
    "address": "21 Club St, Singapore",
    "lat": 1.2815,
    "lng": 103.8452,
    "photo": "https://picsum.photos/seed/place025/400/300",
    "tags": ["healthy", "light", "solo-friendly"],
    "avgMealDuration": 25
  },
  {
    "id": "place_026",
    "name": "Tacos & Cerveza",
    "cuisine": "Mexican",
    "dietary": ["vegetarian"],
    "price": 2,
    "rating": 4.2,
    "reviewCount": 456,
    "distance": 1.7,
    "busyness": 55,
    "openNow": true,
    "ambience": ["casual"],
    "address": "16 Circular Rd, Singapore",
    "lat": 1.2855,
    "lng": 103.8468,
    "photo": "https://picsum.photos/seed/place026/400/300",
    "tags": ["comfort", "group-friendly"],
    "avgMealDuration": 45
  },
  {
    "id": "place_027",
    "name": "Istanbul Kebab House",
    "cuisine": "Turkish",
    "dietary": ["halal"],
    "price": 2,
    "rating": 4.1,
    "reviewCount": 623,
    "distance": 0.9,
    "busyness": 68,
    "openNow": true,
    "ambience": ["casual", "family"],
    "address": "73 Arab St, Singapore",
    "lat": 1.3027,
    "lng": 103.8596,
    "photo": "https://picsum.photos/seed/place027/400/300",
    "tags": ["comfort", "group-friendly"],
    "avgMealDuration": 40
  },
  {
    "id": "place_028",
    "name": "The Quiet Fork",
    "cuisine": "Western",
    "dietary": ["vegetarian", "gluten-free"],
    "price": 3,
    "rating": 4.5,
    "reviewCount": 321,
    "distance": 1.4,
    "busyness": 25,
    "openNow": true,
    "ambience": ["quiet", "romantic"],
    "address": "9 Duxton Hill, Singapore",
    "lat": 1.2792,
    "lng": 103.8428,
    "photo": "https://picsum.photos/seed/place028/400/300",
    "tags": ["healthy", "solo-friendly"],
    "avgMealDuration": 60
  },
  {
    "id": "place_029",
    "name": "Nasi Padang Corner",
    "cuisine": "Indonesian",
    "dietary": ["halal"],
    "price": 1,
    "rating": 4.2,
    "reviewCount": 1456,
    "distance": 0.3,
    "busyness": 80,
    "openNow": true,
    "ambience": ["casual"],
    "address": "39 Stamford Rd, Singapore",
    "lat": 1.2933,
    "lng": 103.8522,
    "photo": "https://picsum.photos/seed/place029/400/300",
    "tags": ["comfort", "solo-friendly"],
    "avgMealDuration": 20
  },
  {
    "id": "place_030",
    "name": "Serai Malay Kitchen",
    "cuisine": "Malay",
    "dietary": ["halal"],
    "price": 2,
    "rating": 4.3,
    "reviewCount": 782,
    "distance": 0.8,
    "busyness": 55,
    "openNow": false,
    "ambience": ["casual", "family"],
    "address": "Geylang Serai Market, Singapore",
    "lat": 1.3185,
    "lng": 103.8993,
    "photo": "https://picsum.photos/seed/place030/400/300",
    "tags": ["comfort", "group-friendly"],
    "avgMealDuration": 45
  },
  {
    "id": "place_031",
    "name": "Nobu Ramen",
    "cuisine": "Japanese",
    "dietary": ["gluten-free"],
    "price": 3,
    "rating": 4.6,
    "reviewCount": 543,
    "distance": 1.1,
    "busyness": 50,
    "openNow": true,
    "ambience": ["casual", "quiet"],
    "address": "12 Bali Lane, Singapore",
    "lat": 1.3023,
    "lng": 103.8584,
    "photo": "https://picsum.photos/seed/place031/400/300",
    "tags": ["comfort", "solo-friendly"],
    "avgMealDuration": 45
  },
  {
    "id": "place_032",
    "name": "Chia Café",
    "cuisine": "Café & Bistro",
    "dietary": ["vegan", "gluten-free"],
    "price": 2,
    "rating": 4.2,
    "reviewCount": 201,
    "distance": 0.7,
    "busyness": 38,
    "openNow": true,
    "ambience": ["quiet"],
    "address": "34 Tras St, Singapore",
    "lat": 1.2773,
    "lng": 103.8420,
    "photo": "https://picsum.photos/seed/place032/400/300",
    "tags": ["healthy", "light", "solo-friendly"],
    "avgMealDuration": 30
  },
  {
    "id": "place_033",
    "name": "Satay by the Bay",
    "cuisine": "Singaporean",
    "dietary": ["halal"],
    "price": 1,
    "rating": 4.4,
    "reviewCount": 3102,
    "distance": 2.3,
    "busyness": 82,
    "openNow": true,
    "ambience": ["casual", "family"],
    "address": "18 Marina Gardens Dr, Singapore",
    "lat": 1.2816,
    "lng": 103.8692,
    "photo": "https://picsum.photos/seed/place033/400/300",
    "tags": ["comfort", "group-friendly"],
    "avgMealDuration": 60
  },
  {
    "id": "place_034",
    "name": "Malabar Spice Trail",
    "cuisine": "Indian",
    "dietary": ["vegetarian"],
    "price": 2,
    "rating": 4.3,
    "reviewCount": 489,
    "distance": 1.0,
    "busyness": 65,
    "openNow": true,
    "ambience": ["family", "casual"],
    "address": "44 Dunlop St, Singapore",
    "lat": 1.3077,
    "lng": 103.8545,
    "photo": "https://picsum.photos/seed/place034/400/300",
    "tags": ["comfort", "group-friendly"],
    "avgMealDuration": 50
  },
  {
    "id": "place_035",
    "name": "Catch of the Day",
    "cuisine": "Seafood",
    "dietary": ["gluten-free"],
    "price": 3,
    "rating": 4.5,
    "reviewCount": 678,
    "distance": 1.9,
    "busyness": 45,
    "openNow": true,
    "ambience": ["casual", "family"],
    "address": "Dempsey Hill, Singapore",
    "lat": 1.3061,
    "lng": 103.8102,
    "photo": "https://picsum.photos/seed/place035/400/300",
    "tags": ["group-friendly", "comfort"],
    "avgMealDuration": 75
  },
  {
    "id": "place_036",
    "name": "The Minimalist Table",
    "cuisine": "Japanese",
    "dietary": ["vegetarian", "gluten-free"],
    "price": 3,
    "rating": 4.7,
    "reviewCount": 312,
    "distance": 1.5,
    "busyness": 30,
    "openNow": true,
    "ambience": ["quiet", "romantic"],
    "address": "3 Stanley St, Singapore",
    "lat": 1.2827,
    "lng": 103.8478,
    "photo": "https://picsum.photos/seed/place036/400/300",
    "tags": ["healthy", "light", "group-friendly"],
    "avgMealDuration": 60
  },
  {
    "id": "place_037",
    "name": "Pasta Roma",
    "cuisine": "Italian",
    "dietary": ["vegetarian"],
    "price": 3,
    "rating": 4.4,
    "reviewCount": 567,
    "distance": 1.3,
    "busyness": 58,
    "openNow": true,
    "ambience": ["romantic", "casual"],
    "address": "80 Club St, Singapore",
    "lat": 1.2818,
    "lng": 103.8449,
    "photo": "https://picsum.photos/seed/place037/400/300",
    "tags": ["comfort", "group-friendly"],
    "avgMealDuration": 70
  },
  {
    "id": "place_038",
    "name": "Briyani Boss",
    "cuisine": "Indian",
    "dietary": ["halal"],
    "price": 1,
    "rating": 4.3,
    "reviewCount": 1234,
    "distance": 0.5,
    "busyness": 75,
    "openNow": true,
    "ambience": ["casual"],
    "address": "665 Buffalo Rd, Singapore",
    "lat": 1.3107,
    "lng": 103.8556,
    "photo": "https://picsum.photos/seed/place038/400/300",
    "tags": ["comfort", "solo-friendly"],
    "avgMealDuration": 25
  },
  {
    "id": "place_039",
    "name": "Roots & Harvest",
    "cuisine": "Western",
    "dietary": ["vegetarian", "vegan"],
    "price": 2,
    "rating": 4.5,
    "reviewCount": 345,
    "distance": 1.0,
    "busyness": 42,
    "openNow": true,
    "ambience": ["quiet", "casual"],
    "address": "5 Gemmill Lane, Singapore",
    "lat": 1.2819,
    "lng": 103.8454,
    "photo": "https://picsum.photos/seed/place039/400/300",
    "tags": ["healthy", "light", "solo-friendly"],
    "avgMealDuration": 40
  },
  {
    "id": "place_040",
    "name": "Penang Hawker Culture",
    "cuisine": "Malaysian",
    "dietary": [],
    "price": 1,
    "rating": 4.4,
    "reviewCount": 1678,
    "distance": 0.7,
    "busyness": 85,
    "openNow": true,
    "ambience": ["casual"],
    "address": "130 Rangoon Rd, Singapore",
    "lat": 1.3118,
    "lng": 103.8565,
    "photo": "https://picsum.photos/seed/place040/400/300",
    "tags": ["comfort", "group-friendly"],
    "avgMealDuration": 35
  },
  {
    "id": "place_041",
    "name": "Monsoon Thai",
    "cuisine": "Thai",
    "dietary": ["gluten-free"],
    "price": 2,
    "rating": 4.3,
    "reviewCount": 723,
    "distance": 1.1,
    "busyness": 60,
    "openNow": true,
    "ambience": ["casual", "family"],
    "address": "17 Mosque St, Singapore",
    "lat": 1.2833,
    "lng": 103.8446,
    "photo": "https://picsum.photos/seed/place041/400/300",
    "tags": ["comfort", "group-friendly"],
    "avgMealDuration": 50
  },
  {
    "id": "place_042",
    "name": "The Herbal Spoon",
    "cuisine": "Chinese",
    "dietary": ["vegetarian"],
    "price": 2,
    "rating": 4.1,
    "reviewCount": 267,
    "distance": 0.9,
    "busyness": 35,
    "openNow": false,
    "ambience": ["quiet", "casual"],
    "address": "25 Smith St, Singapore",
    "lat": 1.2829,
    "lng": 103.8440,
    "photo": "https://picsum.photos/seed/place042/400/300",
    "tags": ["healthy", "light", "solo-friendly"],
    "avgMealDuration": 45
  },
  {
    "id": "place_043",
    "name": "Little Saigon",
    "cuisine": "Vietnamese",
    "dietary": ["vegetarian"],
    "price": 2,
    "rating": 4.3,
    "reviewCount": 456,
    "distance": 0.6,
    "busyness": 55,
    "openNow": true,
    "ambience": ["casual"],
    "address": "31 Tras St, Singapore",
    "lat": 1.2770,
    "lng": 103.8419,
    "photo": "https://picsum.photos/seed/place043/400/300",
    "tags": ["light", "solo-friendly"],
    "avgMealDuration": 35
  },
  {
    "id": "place_044",
    "name": "Yum Yum Sichuan",
    "cuisine": "Chinese",
    "dietary": [],
    "price": 2,
    "rating": 4.4,
    "reviewCount": 889,
    "distance": 1.6,
    "busyness": 70,
    "openNow": true,
    "ambience": ["casual", "family"],
    "address": "50 Mosque St, Singapore",
    "lat": 1.2836,
    "lng": 103.8447,
    "photo": "https://picsum.photos/seed/place044/400/300",
    "tags": ["comfort", "group-friendly"],
    "avgMealDuration": 55
  },
  {
    "id": "place_045",
    "name": "The Lentil Pot",
    "cuisine": "Indian",
    "dietary": ["vegan", "gluten-free"],
    "price": 1,
    "rating": 4.0,
    "reviewCount": 198,
    "distance": 0.8,
    "busyness": 40,
    "openNow": true,
    "ambience": ["casual"],
    "address": "24 Kerbau Rd, Singapore",
    "lat": 1.3060,
    "lng": 103.8532,
    "photo": "https://picsum.photos/seed/place045/400/300",
    "tags": ["healthy", "light", "solo-friendly"],
    "avgMealDuration": 25
  },
  {
    "id": "place_046",
    "name": "Crust & Crumb Bakehouse",
    "cuisine": "Café & Bistro",
    "dietary": ["vegetarian"],
    "price": 2,
    "rating": 4.4,
    "reviewCount": 312,
    "distance": 1.4,
    "busyness": 45,
    "openNow": true,
    "ambience": ["quiet", "casual"],
    "address": "64 Tanjong Pagar Rd, Singapore",
    "lat": 1.2762,
    "lng": 103.8442,
    "photo": "https://picsum.photos/seed/place046/400/300",
    "tags": ["light", "solo-friendly"],
    "avgMealDuration": 30
  },
  {
    "id": "place_047",
    "name": "Halal BBQ Garden",
    "cuisine": "Korean",
    "dietary": ["halal"],
    "price": 3,
    "rating": 4.5,
    "reviewCount": 654,
    "distance": 1.8,
    "busyness": 65,
    "openNow": true,
    "ambience": ["casual", "family"],
    "address": "22 Orchard Rd, Singapore",
    "lat": 1.3044,
    "lng": 103.8321,
    "photo": "https://picsum.photos/seed/place047/400/300",
    "tags": ["comfort", "group-friendly"],
    "avgMealDuration": 75
  },
  {
    "id": "place_048",
    "name": "Miso Moment",
    "cuisine": "Japanese",
    "dietary": ["vegetarian", "gluten-free"],
    "price": 2,
    "rating": 4.4,
    "reviewCount": 287,
    "distance": 0.7,
    "busyness": 38,
    "openNow": true,
    "ambience": ["quiet"],
    "address": "7 Neil Rd, Singapore",
    "lat": 1.2787,
    "lng": 103.8413,
    "photo": "https://picsum.photos/seed/place048/400/300",
    "tags": ["healthy", "light", "solo-friendly"],
    "avgMealDuration": 35
  },
  {
    "id": "place_049",
    "name": "The Garden Plate",
    "cuisine": "Western",
    "dietary": ["vegetarian", "vegan"],
    "price": 3,
    "rating": 4.6,
    "reviewCount": 423,
    "distance": 1.5,
    "busyness": 42,
    "openNow": true,
    "ambience": ["romantic", "quiet"],
    "address": "Botanic Gardens, Singapore",
    "lat": 1.3151,
    "lng": 103.8158,
    "photo": "https://picsum.photos/seed/place049/400/300",
    "tags": ["healthy", "group-friendly"],
    "avgMealDuration": 80
  },
  {
    "id": "place_050",
    "name": "Wok Warriors",
    "cuisine": "Chinese",
    "dietary": [],
    "price": 1,
    "rating": 4.2,
    "reviewCount": 1123,
    "distance": 0.4,
    "busyness": 78,
    "openNow": true,
    "ambience": ["casual"],
    "address": "Maxwell Food Centre, Singapore",
    "lat": 1.2809,
    "lng": 103.8443,
    "photo": "https://picsum.photos/seed/place050/400/300",
    "tags": ["comfort", "solo-friendly"],
    "avgMealDuration": 20
  }
]
